[{"id": "r271Tv2uqJtIcghCFRa8BQ", "alias": "haile-bistro-new-york", "name": "Haile Bistro", "image_url": "https://s3-media1.fl.yelpcdn.com/bphoto/dkqvQWWa6moYhJvg0BwNeg/o.jpg", "is_closed": false, "url": "https://www.yelp.com/biz/haile-bistro-new-york?adjust_creative=6gW1rnimGUi5TE4OiuF1-Q&utm_campaign=yelp_api_v3&utm_medium=api_v3_business_search&utm_source=6gW1rnimGUi5TE4OiuF1-Q", "review_count": 268, "categories": [{"alias": "ethiopian", "title": "Ethiopian"}, {"alias": "bars", "title": "Bars"}], "rating": 4.5, "coordinates": {"latitude": 40.72783, "longitude": -73.97951}, "transactions": ["pickup", "delivery"], "price": "$$", "location": {"address1": "182 Ave B", "address2": null, "address3": "", "city": "New York", "zip_code": "10009", "country": "US", "state": "NY", "display_address": ["182 Ave B", "New York, NY 10009"]}, "phone": "+12126738949", "display_phone": "(212) 673-8949", "distance": 3605.974548467732}, {"id": "eCjQpniDmsnw3Hc9qP0ASw", "alias": "queen-of-sheba-new-york", "name": "Queen of Sheba", "image_url": "https://s3-media2.fl.yelpcdn.com/bphoto/-XuBSohhlMYO0WnZ1A8A3w/o.jpg", "is_closed": false, "url": "https://www.yelp.com/biz/queen-of-sheba-new-york?adjust_creative=6gW1rnimGUi5TE4OiuF1-Q&utm_campaign=yelp_api_v3&utm_medium=api_v3_business_search&utm_source=6gW1rnimGUi5TE4OiuF1-Q", "review_count": 669, "categories": [{"alias": "ethiopian", "title": "Ethiopian"}], "rating": 3.5, "coordinates": {"latitude": 40.76193, "longitude": -73.99347}, "transactions": ["pickup", "delivery"], "price": "$$", "location": {"address1": "650 10th Ave", "address2": "", "address3": "", "city": "New York", "zip_code": "10036", "country": "US", "state": "NY", "display_address": ["650 10th Ave", "New York, NY 10036"]}, "phone": "+12123970610", "display_phone": "(212) 397-0610", "distance": 1278.3883768266778}, {"id": "tbg4gR3jUUllR28cySo2kg", "alias": "awash-ethiopian-restaurant-new-york-2", "name": "Awash Ethiopian Restaurant", "image_url": "https://s3-media2.fl.yelpcdn.com/bphoto/I-BqpJIlgYYFuS_qV-7Zbg/o.jpg", "is_closed": false, "url": "https://www.yelp.com/biz/awash-ethiopian-restaurant-new-york-2?adjust_creative=6gW1rnimGUi5TE4OiuF1-Q&utm_campaign=yelp_api_v3&utm_medium=api_v3_business_search&utm_source=6gW1rnimGUi5TE4OiuF1-Q", "review_count": 519, "categories": [{"alias": "ethiopian", "title": "Ethiopian"}, {"alias": "african", "title": "African"}], "rating": 4.0, "coordinates": {"latitude": 40.800641, "longitude": -73.965098}, "transactions": ["pickup", "delivery"], "price": "$$", "location": {"address1": "947 Amsterdam Ave", "address2": "", "address3": "", "city": "New York", "zip_code": "10025", "country": "US", "state": "NY", "display_address": ["947 Amsterdam Ave", "New York, NY 10025"]}, "phone": "+12129611416", "display_phone": "(212) 961-1416", "distance": 4634.650955511068}, {"id": "kSX8M82uUAcw5vfhn8jMng", "alias": "meske-ethiopian-restaurant-new-york", "name": "Meske Ethiopian Restaurant", "image_url": "https://s3-media4.fl.yelpcdn.com/bphoto/kA6LZcPaJLyzXb6SwDCAuA/o.jpg", "is_closed": false, "url": "https://www.yelp.com/biz/meske-ethiopian-restaurant-new-york?adjust_creative=6gW1rnimGUi5TE4OiuF1-Q&utm_campaign=yelp_api_v3&utm_medium=api_v3_business_search&utm_source=6gW1rnimGUi5TE4OiuF1-Q", "review_count": 324, "categories": [{"alias": "ethiopian", "title": "Ethiopian"}], "rating": 3.5, "coordinates": {"latitude": 40.76263, "longitude": -73.99297}, "transactions": ["pickup", "delivery"], "price": "$$", "location": {"address1": "468 W 47th St", "address2": "", "address3": "", "city": "New York", "zip_code": "10036", "country": "US", "state": "NY", "display_address": ["468 W 47th St", "New York, NY 10036"]}, "phone": "+12123991949", "display_phone": "(212) 399-1949", "distance": 1233.9868890729374}, {"id": "pwarWuPn7Aw_il-epzJEgg", "alias": "awash-ethiopian-restaurant-new-york-3", "name": "Awash Ethiopian Restaurant", "image_url": "https://s3-media3.fl.yelpcdn.com/bphoto/QZBdtHGJL5_cspafnXqq5g/o.jpg", "is_closed": false, "url": "https://www.yelp.com/biz/awash-ethiopian-restaurant-new-york-3?adjust_creative=6gW1rnimGUi5TE4OiuF1-Q&utm_campaign=yelp_api_v3&utm_medium=api_v3_business_search&utm_source=6gW1rnimGUi5TE4OiuF1-Q", "review_count": 352, "categories": [{"alias": "ethiopian", "title": "Ethiopian"}, {"alias": "african", "title": "African"}], "rating": 4.0, "coordinates": {"latitude": 40.72658, "longitude": -73.98682}, "transactions": ["pickup", "delivery"], "price": "$$", "location": {"address1": "338 E 6th St", "address2": "", "address3": "", "city": "New York", "zip_code": "10003", "country": "US", "state": "NY", "display_address": ["338 E 6th St", "New York, NY 10003"]}, "phone": "+12129829589", "display_phone": "(212) 982-9589", "distance": 3807.163103608534}, {"id": "J0bWu6D6dp4UG0zgkP-Eog", "alias": "meskerem-ethiopian-cuisine-new-york", "name": "Meskerem Ethiopian Cuisine", "image_url": "https://s3-media2.fl.yelpcdn.com/bphoto/Q9IIoX5EYpxWZusIskpSzw/o.jpg", "is_closed": false, "url": "https://www.yelp.com/biz/meskerem-ethiopian-cuisine-new-york?adjust_creative=6gW1rnimGUi5TE4OiuF1-Q&utm_campaign=yelp_api_v3&utm_medium=api_v3_business_search&utm_source=6gW1rnimGUi5TE4OiuF1-Q", "review_count": 423, "categories": [{"alias": "ethiopian", "title": "Ethiopian"}], "rating": 3.5, "coordinates": {"latitude": 40.72991, "longitude": -74.00025}, "transactions": ["pickup", "delivery"], "price": "$$", "location": {"address1": "124 Macdougal St", "address2": "", "address3": "", "city": "New York", "zip_code": "10012", "country": "US", "state": "NY", "display_address": ["124 Macdougal St", "New York, NY 10012"]}, "phone": "+12127778111", "display_phone": "(212) 777-8111", "distance": 3835.3215414163815}, {"id": "C2E1E0o-ssSrf_dokwxTXg", "alias": "massawa-new-york", "name": "Massawa", "image_url": "https://s3-media3.fl.yelpcdn.com/bphoto/Xfrp9C-QkcKfBrUoBbxbwA/o.jpg", "is_closed": false, "url": "https://www.yelp.com/biz/massawa-new-york?adjust_creative=6gW1rnimGUi5TE4OiuF1-Q&utm_campaign=yelp_api_v3&utm_medium=api_v3_business_search&utm_source=6gW1rnimGUi5TE4OiuF1-Q", "review_count": 358, "categories": [{"alias": "ethiopian", "title": "Ethiopian"}, {"alias": "eritrean", "title": "Eritrean"}, {"alias": "vegan", "title": "Vegan"}], "rating": 4.0, "coordinates": {"latitude": 40.8099, "longitude": -73.95856}, "transactions": ["pickup", "delivery"], "price": "$$", "location": {"address1": "1239 Amsterdam Ave", "address2": "", "address3": "", "city": "New York", "zip_code": "10027", "country": "US", "state": "NY", "display_address": ["1239 Amsterdam Ave", "New York, NY 10027"]}, "phone": "+12126630505", "display_phone": "(212) 663-0505", "distance": 5760.571071301955}, {"id": "hzhiQlyuwFt_w4-C47_Tew", "alias": "lalibela-ethiopian-restaurant-new-york-2", "name": "Lalibela Ethiopian Restaurant", "image_url": "https://s3-media4.fl.yelpcdn.com/bphoto/r03bTfq5h33jtjel6_7x2Q/o.jpg", "is_closed": false, "url": "https://www.yelp.com/biz/lalibela-ethiopian-restaurant-new-york-2?adjust_creative=6gW1rnimGUi5TE4OiuF1-Q&utm_campaign=yelp_api_v3&utm_medium=api_v3_business_search&utm_source=6gW1rnimGUi5TE4OiuF1-Q", "review_count": 31, "categories": [{"alias": "ethiopian", "title": "Ethiopian"}], "rating": 4.5, "coordinates": {"latitude": 40.80228541815504, "longitude": -73.95666}, "transactions": ["pickup", "delivery"], "location": {"address1": "2084 Frederick Douglass Blvd", "address2": "", "address3": null, "city": "New York", "zip_code": "10026", "country": "US", "state": "NY", "display_address": ["2084 Frederick Douglass Blvd", "New York, NY 10026"]}, "phone": "+19178819775", "display_phone": "(917) 881-9775", "distance": 5026.477026527379}, {"id": "GjAHO7PA-3Sxg1lkGza4sQ", "alias": "b-and-b-restaurant-corporation-new-york", "name": "B&B Restaurant Corporation", "image_url": "https://s3-media3.fl.yelpcdn.com/bphoto/uKbkMrTT6NTqtlJ6GapC-w/o.jpg", "is_closed": false, "url": "https://www.yelp.com/biz/b-and-b-restaurant-corporation-new-york?adjust_creative=6gW1rnimGUi5TE4OiuF1-Q&utm_campaign=yelp_api_v3&utm_medium=api_v3_business_search&utm_source=6gW1rnimGUi5TE4OiuF1-Q", "review_count": 170, "categories": [{"alias": "african", "title": "African"}, {"alias": "caribbean", "title": "Caribbean"}], "rating": 4.5, "coordinates": {"latitude": 40.7459112, "longitude": -73.9936086}, "transactions": ["pickup", "delivery"], "price": "$", "location": {"address1": "165 West 26th St", "address2": "", "address3": "", "city": "New York", "zip_code": "10001", "country": "US", "state": "NY", "display_address": ["165 West 26th St", "New York, NY 10001"]}, "phone": "+16464298174", "display_phone": "(646) 429-8174", "distance": 2036.9687046024667}, {"id": "l4fwf8VwAokv3MWT45Ab7g", "alias": "bunna-cafe-brooklyn", "name": "Bunna Cafe", "image_url": "https://s3-media4.fl.yelpcdn.com/bphoto/jGKIcCZ2lx23kKX2YRug7g/o.jpg", "is_closed": false, "url": "https://www.yelp.com/biz/bunna-cafe-brooklyn?adjust_creative=6gW1rnimGUi5TE4OiuF1-Q&utm_campaign=yelp_api_v3&utm_medium=api_v3_business_search&utm_source=6gW1rnimGUi5TE4OiuF1-Q", "review_count": 751, "categories": [{"alias": "ethiopian", "title": "Ethiopian"}, {"alias": "vegan", "title": "Vegan"}, {"alias": "african", "title": "African"}], "rating": 4.5, "coordinates": {"latitude": 40.705042, "longitude": -73.928078}, "transactions": ["pickup", "delivery"], "price": "$$", "location": {"address1": "1084 Flushing Ave", "address2": "", "address3": "", "city": "Brooklyn", "zip_code": "11237", "country": "US", "state": "NY", "display_address": ["1084 Flushing Ave", "Brooklyn, NY 11237"]}, "phone": "+13472952227", "display_phone": "(347) 295-2227", "distance": 7462.4189970390335}, {"id": "Bzprbnm51unkJqh9xtlQ7g", "alias": "abyssinia-ethiopian-restaurant-new-york", "name": "Abyssinia Ethiopian Restaurant", "image_url": "https://s3-media4.fl.yelpcdn.com/bphoto/ME1fNERm2KX5DRWbmIHnFQ/o.jpg", "is_closed": false, "url": "https://www.yelp.com/biz/abyssinia-ethiopian-restaurant-new-york?adjust_creative=6gW1rnimGUi5TE4OiuF1-Q&utm_campaign=yelp_api_v3&utm_medium=api_v3_business_search&utm_source=6gW1rnimGUi5TE4OiuF1-Q", "review_count": 259, "categories": [{"alias": "ethiopian", "title": "Ethiopian"}], "rating": 4.0, "coordinates": {"latitude": 40.8158229565315, "longitude": -73.9458632469177}, "transactions": ["pickup", "delivery"], "price": "$$", "location": {"address1": "268 W 135th St", "address2": "", "address3": "", "city": "New York", "zip_code": "10030", "country": "US", "state": "NY", "display_address": ["268 W 135th St", "New York, NY 10030"]}, "phone": "+12122812673", "display_phone": "(212) 281-2673", "distance": 6766.336888189603}, {"id": "p-PJcI8SYIi_mowY5svQOA", "alias": "nomad-new-york-5", "name": "Nomad", "image_url": "https://s3-media1.fl.yelpcdn.com/bphoto/rOhjQFaW1hDS1NE9Gzr1tg/o.jpg", "is_closed": false, "url": "https://www.yelp.com/biz/nomad-new-york-5?adjust_creative=6gW1rnimGUi5TE4OiuF1-Q&utm_campaign=yelp_api_v3&utm_medium=api_v3_business_search&utm_source=6gW1rnimGUi5TE4OiuF1-Q", "review_count": 487, "categories": [{"alias": "african", "title": "African"}, {"alias": "mediterranean", "title": "Mediterranean"}, {"alias": "bars", "title": "Bars"}], "rating": 3.5, "coordinates": {"latitude": 40.72638, "longitude": -73.98904}, "transactions": ["pickup", "delivery"], "price": "$$", "location": {"address1": "78 2nd Ave", "address2": null, "address3": "", "city": "New York", "zip_code": "10003", "country": "US", "state": "NY", "display_address": ["78 2nd Ave", "New York, NY 10003"]}, "phone": "+12122535410", "display_phone": "(212) 253-5410", "distance": 3866.760160871035}, {"id": "N-yJYDnCQzO3w5n2Zmtc0A", "alias": "makina-cafe-long-island-city-2", "name": "Makina Cafe", "image_url": "https://s3-media3.fl.yelpcdn.com/bphoto/1qAd9oWjqGTq7esTe9Z-wQ/o.jpg", "is_closed": false, "url": "https://www.yelp.com/biz/makina-cafe-long-island-city-2?adjust_creative=6gW1rnimGUi5TE4OiuF1-Q&utm_campaign=yelp_api_v3&utm_medium=api_v3_business_search&utm_source=6gW1rnimGUi5TE4OiuF1-Q", "review_count": 81, "categories": [{"alias": "ethiopian", "title": "Ethiopian"}, {"alias": "foodtrucks", "title": "Food Trucks"}], "rating": 4.5, "coordinates": {"latitude": 40.7556053, "longitude": -73.931351}, "transactions": ["pickup", "delivery"], "price": "$", "location": {"address1": "36-47 30th St", "address2": "", "address3": null, "city": "Long Island City", "zip_code": "11106", "country": "US", "state": "NY", "display_address": ["36-47 30th St", "Long Island City, NY 11106"]}, "phone": "+19174265649", "display_phone": "(917) 426-5649", "distance": 3998.357462657056}, {"id": "YJ05uT-i4-pTUB_y1an6zw", "alias": "awash-brooklyn-brooklyn-5", "name": "Awash Brooklyn", "image_url": "https://s3-media1.fl.yelpcdn.com/bphoto/e_16iI66wCBiTs8_iiueIA/o.jpg", "is_closed": false, "url": "https://www.yelp.com/biz/awash-brooklyn-brooklyn-5?adjust_creative=6gW1rnimGUi5TE4OiuF1-Q&utm_campaign=yelp_api_v3&utm_medium=api_v3_business_search&utm_source=6gW1rnimGUi5TE4OiuF1-Q", "review_count": 219, "categories": [{"alias": "ethiopian", "title": "Ethiopian"}, {"alias": "african", "title": "African"}], "rating": 4.5, "coordinates": {"latitude": 40.6858, "longitude": -73.99441}, "transactions": ["pickup", "delivery"], "price": "$$", "location": {"address1": "242 Court St", "address2": "", "address3": "", "city": "Brooklyn", "zip_code": "11201", "country": "US", "state": "NY", "display_address": ["242 Court St", "Brooklyn, NY 11201"]}, "phone": "+17182432151", "display_phone": "(718) 243-2151", "distance": 8382.758114788}, {"id": "vGQRmWKrR_x-JAyeCT5F1A", "alias": "tsion-cafe-new-york", "name": "Tsion Cafe", "image_url": "https://s3-media4.fl.yelpcdn.com/bphoto/zlWh3zhLXWY76LPvC0F7rg/o.jpg", "is_closed": false, "url": "https://www.yelp.com/biz/tsion-cafe-new-york?adjust_creative=6gW1rnimGUi5TE4OiuF1-Q&utm_campaign=yelp_api_v3&utm_medium=api_v3_business_search&utm_source=6gW1rnimGUi5TE4OiuF1-Q", "review_count": 199, "categories": [{"alias": "ethiopian", "title": "Ethiopian"}, {"alias": "mediterranean", "title": "Mediterranean"}, {"alias": "bars", "title": "Bars"}], "rating": 4.0, "coordinates": {"latitude": 40.826335, "longitude": -73.943519}, "transactions": ["pickup", "delivery"], "price": "$$", "location": {"address1": "763 St Nicholas Ave", "address2": null, "address3": "", "city": "New York", "zip_code": "10031", "country": "US", "state": "NY", "display_address": ["763 St Nicholas Ave", "New York, NY 10031"]}, "phone": "+12122342070", "display_phone": "(212) 234-2070", "distance": 7920.344141428377}, {"id": "NPmqKZzKxwEXCZQZL7viHA", "alias": "ghenet-brooklyn-brooklyn", "name": "Ghenet Brooklyn", "image_url": "https://s3-media4.fl.yelpcdn.com/bphoto/3QMlKIt0KR2vrsVKXCdBwg/o.jpg", "is_closed": false, "url": "https://www.yelp.com/biz/ghenet-brooklyn-brooklyn?adjust_creative=6gW1rnimGUi5TE4OiuF1-Q&utm_campaign=yelp_api_v3&utm_medium=api_v3_business_search&utm_source=6gW1rnimGUi5TE4OiuF1-Q", "review_count": 535, "categories": [{"alias": "ethiopian", "title": "Ethiopian"}, {"alias": "african", "title": "African"}], "rating": 4.0, "coordinates": {"latitude": 40.6791399, "longitude": -73.98153}, "transactions": ["pickup", "delivery"], "price": "$$", "location": {"address1": "348 Douglass St", "address2": "", "address3": "", "city": "Brooklyn", "zip_code": "11217", "country": "US", "state": "NY", "display_address": ["348 Douglass St", "Brooklyn, NY 11217"]}, "phone": "+17182304475", "display_phone": "(718) 230-4475", "distance": 9022.123057094102}, {"id": "ibxhUQF1m70ymB9lMFG5og", "alias": "bati-brooklyn-2", "name": "Bati", "image_url": "https://s3-media4.fl.yelpcdn.com/bphoto/MnghD_waFAxqH9x04019mQ/o.jpg", "is_closed": false, "url": "https://www.yelp.com/biz/bati-brooklyn-2?adjust_creative=6gW1rnimGUi5TE4OiuF1-Q&utm_campaign=yelp_api_v3&utm_medium=api_v3_business_search&utm_source=6gW1rnimGUi5TE4OiuF1-Q", "review_count": 241, "categories": [{"alias": "ethiopian", "title": "Ethiopian"}], "rating": 3.5, "coordinates": {"latitude": 40.6865076, "longitude": -73.9746607}, "transactions": ["pickup", "delivery"], "price": "$$", "location": {"address1": "747 Fulton St", "address2": "", "address3": "", "city": "Brooklyn", "zip_code": "11217", "country": "US", "state": "NY", "display_address": ["747 Fulton St", "Brooklyn, NY 11217"]}, "phone": "+17187979696", "display_phone": "(718) 797-9696", "distance": 8187.246708862388}, {"id": "roT-M9epcHDOGjYgGmWpoA", "alias": "ras-plant-based-brooklyn", "name": "Ras Plant Based", "image_url": "https://s3-media4.fl.yelpcdn.com/bphoto/eMZ54ICAFnEf7Y0SKdfs0A/o.jpg", "is_closed": false, "url": "https://www.yelp.com/biz/ras-plant-based-brooklyn?adjust_creative=6gW1rnimGUi5TE4OiuF1-Q&utm_campaign=yelp_api_v3&utm_medium=api_v3_business_search&utm_source=6gW1rnimGUi5TE4OiuF1-Q", "review_count": 267, "categories": [{"alias": "ethiopian", "title": "Ethiopian"}, {"alias": "vegan", "title": "Vegan"}, {"alias": "vegetarian", "title": "Vegetarian"}], "rating": 5.0, "coordinates": {"latitude": 40.67343, "longitude": -73.95682}, "transactions": ["pickup", "delivery"], "price": "$$", "location": {"address1": "739 Franklin Ave", "address2": "", "address3": null, "city": "Brooklyn", "zip_code": "11238", "country": "US", "state": "NY", "display_address": ["739 Franklin Ave", "Brooklyn, NY 11238"]}, "phone": "+17186226220", "display_phone": "(718) 622-6220", "distance": 9822.443903763504}, {"id": "2tTUnW5filzR3YG-G7rZ0w", "alias": "benyam-cuisine-new-york", "name": "Benyam Cuisine", "image_url": "https://s3-media2.fl.yelpcdn.com/bphoto/lmoDgzsqclsmT4IR4Pq8aw/o.jpg", "is_closed": false, "url": "https://www.yelp.com/biz/benyam-cuisine-new-york?adjust_creative=6gW1rnimGUi5TE4OiuF1-Q&utm_campaign=yelp_api_v3&utm_medium=api_v3_business_search&utm_source=6gW1rnimGUi5TE4OiuF1-Q", "review_count": 153, "categories": [{"alias": "ethiopian", "title": "Ethiopian"}], "rating": 4.5, "coordinates": {"latitude": 40.82522, "longitude": -73.94058}, "transactions": ["delivery"], "price": "$$", "location": {"address1": "2795 Frederick Douglas Blvd", "address2": null, "address3": "", "city": "New York", "zip_code": "10039", "country": "US", "state": "NY", "display_address": ["2795 Frederick Douglas Blvd", "New York, NY 10039"]}, "phone": "+12125107353", "display_phone": "(212) 510-7353", "distance": 7903.83164555167}, {"id": "DgpnbYHVKWVuy_MC_5iiJA", "alias": "la-savane-new-york", "name": "La Savane", "image_url": "https://s3-media2.fl.yelpcdn.com/bphoto/mVb_BLRYB7CUHgcA0_ZW4A/o.jpg", "is_closed": false, "url": "https://www.yelp.com/biz/la-savane-new-york?adjust_creative=6gW1rnimGUi5TE4OiuF1-Q&utm_campaign=yelp_api_v3&utm_medium=api_v3_business_search&utm_source=6gW1rnimGUi5TE4OiuF1-Q", "review_count": 95, "categories": [{"alias": "african", "title": "African"}], "rating": 4.0, "coordinates": {"latitude": 40.80425085660534, "longitude": -73.95424674331827}, "transactions": ["pickup", "delivery"], "price": "$$", "location": {"address1": "239 W 116th St", "address2": "", "address3": "", "city": "New York", "zip_code": "10026", "country": "US", "state": "NY", "display_address": ["239 W 116th St", "New York, NY 10026"]}, "phone": "+16464904644", "display_phone": "(646) 490-4644", "distance": 5305.320501662128}, {"id": "uwj3FOQ0ucGOxk3vBXaBCg", "alias": "teranga-harlem-new-york", "name": "Teranga Harlem", "image_url": "https://s3-media2.fl.yelpcdn.com/bphoto/hdirer4OT44hO9NmG8V4Zg/o.jpg", "is_closed": false, "url": "https://www.yelp.com/biz/teranga-harlem-new-york?adjust_creative=6gW1rnimGUi5TE4OiuF1-Q&utm_campaign=yelp_api_v3&utm_medium=api_v3_business_search&utm_source=6gW1rnimGUi5TE4OiuF1-Q", "review_count": 123, "categories": [{"alias": "african", "title": "African"}], "rating": 4.5, "coordinates": {"latitude": 40.796278, "longitude": -73.949119}, "transactions": ["pickup", "delivery"], "price": "$$", "location": {"address1": "1280 5th Ave", "address2": "", "address3": null, "city": "New York", "zip_code": "10029", "country": "US", "state": "NY", "display_address": ["1280 5th Ave", "New York, NY 10029"]}, "phone": "+16466631935", "display_phone": "(646) 663-1935", "distance": 4703.446515359338}, {"id": "RztL8s8NIDL-TD770kRyAg", "alias": "keur-coumba-restaurant-manhattan", "name": "Keur Coumba Restaurant", "image_url": "https://s3-media2.fl.yelpcdn.com/bphoto/Hsm-1_O5nRFdKrA2IyiT9w/o.jpg", "is_closed": false, "url": "https://www.yelp.com/biz/keur-coumba-restaurant-manhattan?adjust_creative=6gW1rnimGUi5TE4OiuF1-Q&utm_campaign=yelp_api_v3&utm_medium=api_v3_business_search&utm_source=6gW1rnimGUi5TE4OiuF1-Q", "review_count": 24, "categories": [{"alias": "senegalese", "title": "Senegalese"}], "rating": 3.5, "coordinates": {"latitude": 40.8074799, "longitude": -73.9626312}, "transactions": ["delivery"], "price": "$$", "location": {"address1": "125 W 116th St", "address2": "", "address3": "", "city": "Manhattan", "zip_code": "10026", "country": "US", "state": "NY", "display_address": ["125 W 116th St", "Manhattan, NY 10026"]}, "phone": "+12128663900", "display_phone": "(212) 866-3900", "distance": 5278.408775218028}, {"id": "Acme_IxW4FEo1zm6RuJXxQ", "alias": "buunni-coffee-inwood-new-york-4", "name": "Buunni Coffee - Inwood", "image_url": "https://s3-media2.fl.yelpcdn.com/bphoto/9owA0FCjyqoKdmnYHOkTSQ/o.jpg", "is_closed": false, "url": "https://www.yelp.com/biz/buunni-coffee-inwood-new-york-4?adjust_creative=6gW1rnimGUi5TE4OiuF1-Q&utm_campaign=yelp_api_v3&utm_medium=api_v3_business_search&utm_source=6gW1rnimGUi5TE4OiuF1-Q", "review_count": 35, "categories": [{"alias": "coffee", "title": "Coffee & Tea"}, {"alias": "bakeries", "title": "Bakeries"}, {"alias": "ethiopian", "title": "Ethiopian"}], "rating": 3.5, "coordinates": {"latitude": 40.8681, "longitude": -73.92041}, "transactions": ["pickup", "delivery"], "location": {"address1": "4961 Broadway", "address2": null, "address3": "", "city": "New York", "zip_code": "10034", "country": "US", "state": "NY", "display_address": ["4961 Broadway", "New York, NY 10034"]}, "phone": "+19174727801", "display_phone": "(917) 472-7801", "distance": 12952.742331651247}, {"id": "lRiPZuKtkxNILZixaD6WMA", "alias": "bravo-african-restaurant-east-bronx", "name": "Bravo African Restaurant", "image_url": "https://s3-media2.fl.yelpcdn.com/bphoto/6TzYezt9QdQHG2aLzNA6yA/o.jpg", "is_closed": false, "url": "https://www.yelp.com/biz/bravo-african-restaurant-east-bronx?adjust_creative=6gW1rnimGUi5TE4OiuF1-Q&utm_campaign=yelp_api_v3&utm_medium=api_v3_business_search&utm_source=6gW1rnimGUi5TE4OiuF1-Q", "review_count": 12, "categories": [{"alias": "senegalese", "title": "Senegalese"}], "rating": 4.0, "coordinates": {"latitude": 40.828537, "longitude": -73.8814621}, "transactions": ["pickup", "delivery"], "price": "$$", "location": {"address1": "1473 Westchester Ave", "address2": "", "address3": "", "city": "East Bronx", "zip_code": "10472", "country": "US", "state": "NY", "display_address": ["1473 Westchester Ave", "East Bronx, NY 10472"]}, "phone": "+19292631432", "display_phone": "(929) 263-1432", "distance": 11159.903078386275}, {"id": "_sipbeIM-EtR4cIzleEUhg", "alias": "cafe-rue-dix-brooklyn", "name": "Cafe Rue Dix", "image_url": "https://s3-media3.fl.yelpcdn.com/bphoto/dMb3a1ZjVLOvLOMotMhP4g/o.jpg", "is_closed": false, "url": "https://www.yelp.com/biz/cafe-rue-dix-brooklyn?adjust_creative=6gW1rnimGUi5TE4OiuF1-Q&utm_campaign=yelp_api_v3&utm_medium=api_v3_business_search&utm_source=6gW1rnimGUi5TE4OiuF1-Q", "review_count": 416, "categories": [{"alias": "french", "title": "French"}, {"alias": "cocktailbars", "title": "Cocktail Bars"}, {"alias": "senegalese", "title": "Senegalese"}], "rating": 4.0, "coordinates": {"latitude": 40.6740232907878, "longitude": -73.9538387930572}, "transactions": ["pickup", "delivery"], "price": "$$", "location": {"address1": "1451 Bedford Ave", "address2": "", "address3": "", "city": "Brooklyn", "zip_code": "11216", "country": "US", "state": "NY", "display_address": ["1451 Bedford Ave", "Brooklyn, NY 11216"]}, "phone": "+19292342543", "display_phone": "(929) 234-2543", "distance": 9806.842838115128}, {"id": "FdB6KDTEmX8HvomPwySAHg", "alias": "joloff-restaurant-brooklyn", "name": "Joloff Restaurant", "image_url": "https://s3-media4.fl.yelpcdn.com/bphoto/RIdpYPfGIQSrRiqpVWvJ6A/o.jpg", "is_closed": false, "url": "https://www.yelp.com/biz/joloff-restaurant-brooklyn?adjust_creative=6gW1rnimGUi5TE4OiuF1-Q&utm_campaign=yelp_api_v3&utm_medium=api_v3_business_search&utm_source=6gW1rnimGUi5TE4OiuF1-Q", "review_count": 208, "categories": [{"alias": "senegalese", "title": "Senegalese"}, {"alias": "halal", "title": "Halal"}], "rating": 4.0, "coordinates": {"latitude": 40.6841, "longitude": -73.95422}, "transactions": ["pickup", "delivery"], "price": "$$", "location": {"address1": "1168 Bedford Ave", "address2": "", "address3": "", "city": "Brooklyn", "zip_code": "11216", "country": "US", "state": "NY", "display_address": ["1168 Bedford Ave", "Brooklyn, NY 11216"]}, "phone": "+17182300523", "display_phone": "(718) 230-0523", "distance": 8700.967500332143}, {"id": "dqvNBLqqwgA3iZfRn-Kb6w", "alias": "the-green-place-nigeria-restaurant-brooklyn", "name": "The Green Place Nigeria Restaurant", "image_url": "https://s3-media2.fl.yelpcdn.com/bphoto/Lc6BOQjQH0km11_Rn6kHDw/o.jpg", "is_closed": false, "url": "https://www.yelp.com/biz/the-green-place-nigeria-restaurant-brooklyn?adjust_creative=6gW1rnimGUi5TE4OiuF1-Q&utm_campaign=yelp_api_v3&utm_medium=api_v3_business_search&utm_source=6gW1rnimGUi5TE4OiuF1-Q", "review_count": 41, "categories": [{"alias": "african", "title": "African"}], "rating": 3.5, "coordinates": {"latitude": 40.677021, "longitude": -73.911163}, "transactions": ["delivery"], "price": "$$", "location": {"address1": "180 Rockaway Ave", "address2": null, "address3": "", "city": "Brooklyn", "zip_code": "11233", "country": "US", "state": "NY", "display_address": ["180 Rockaway Ave", "Brooklyn, NY 11233"]}, "phone": "+13477852738", "display_phone": "(347) 785-2738", "distance": 10855.779328484921}, {"id": "kXnTlyTQ9foQ6KOvn7SYbQ", "alias": "africana-restaurant-jamaica", "name": "Africana Restaurant", "image_url": "https://s3-media3.fl.yelpcdn.com/bphoto/nJErOl8sYEihsu46zmW6rw/o.jpg", "is_closed": false, "url": "https://www.yelp.com/biz/africana-restaurant-jamaica?adjust_creative=6gW1rnimGUi5TE4OiuF1-Q&utm_campaign=yelp_api_v3&utm_medium=api_v3_business_search&utm_source=6gW1rnimGUi5TE4OiuF1-Q", "review_count": 20, "categories": [{"alias": "african", "title": "African"}], "rating": 4.0, "coordinates": {"latitude": 40.6948099, "longitude": -73.80568}, "transactions": ["pickup", "delivery"], "price": "$$", "location": {"address1": "146-12 Liberty Ave", "address2": "", "address3": "", "city": "Jamaica", "zip_code": "11435", "country": "US", "state": "NY", "display_address": ["146-12 Liberty Ave", "Jamaica, NY 11435"]}, "phone": "+17186588501", "display_phone": "(718) 658-8501", "distance": 16268.382423587524}]